# Conferences, workshops, summer schools, minicourses attended, plus
# academic visits, newest first. type is one of: conference, workshop,
# summer-school, course, seminar, visit.
# lat/lon are used to place markers on the travel map (see travel-map.md);
# status is "past" or "future".
# Some entries here are duplicated in service.yml when the event was
# both attended and (co-)organized (e.g. Tour de Formosa).

- title: "Mini-Workshop: Algebraic Geometry in Xitou"
  type: workshop
  institution: "National Taiwan University / National Science and Technology Council"
  city: "Xitou, Taiwan"
  lat: 23.6717
  lon: 120.7972
  start: 2026-07-19
  end: 2026-07-21
  status: future
  url: "https://sites.google.com/view/mini-workshopalgebraicgeometry/%E9%A6%96%E9%A0%81"

- title: "10th Pacific Rim Conference on Mathematics"
  type: conference
  institution: "Universidad Complutense de Madrid"
  city: "Madrid, Spain"
  lat: 40.4168
  lon: -3.7038
  start: 2026-06-15
  end: 2026-06-19
  status: past
  url: "https://sites.google.com/view/2026pacificrim/home"

- title: "Topological and Geometric Deep Learning: Theory, Methods, and Applications"
  type: workshop
  institution: "Academia Sinica"
  city: "Taipei, Taiwan"
  lat: 25.0330
  lon: 121.5654
  start: 2026-05-11
  end: 2026-05-14
  status: past
  url: "https://ines.topology.rocks/tgdl-2026"

- title: "NCTS Minicourse - Topics on Derived Categories of Coherent Sheaves"
  type: course
  institution: "National Center for Theoretical Sciences"
  note: "Lecturer: Yujiro Kawamata"
  city: "Taipei, Taiwan"
  lat: 25.0330
  lon: 121.5654
  start: 2026-04-22
  end: 2026-04-29
  status: past
  url: "https://ncts.ntu.edu.tw/events_3_detail.php?nid=395"

- title: "2026 Higher Dimensional Algebraic Geometry"
  type: conference
  institution: "National Taiwan University"
  city: "Taipei, Taiwan"
  lat: 25.0330
  lon: 121.5654
  start: 2026-04-13
  end: 2026-04-17
  status: past
  url: "https://sites.google.com/ncts.ntu.edu.tw/2026hdag"

- title: "2026 Higher Dimensional Algebraic Geometry - Minicourses"
  type: course
  institution: "National Taiwan University"
  city: "Taipei, Taiwan"
  lat: 25.0330
  lon: 121.5654
  start: 2026-04-04
  end: 2026-04-10
  status: past
  url: "https://sites.google.com/ncts.ntu.edu.tw/2026hdag-minicourses"

- title: "Meet with Prof. Chenyang Xu"
  type: seminar
  institution: "National Center for Theoretical Sciences"
  city: "Taipei, Taiwan"
  lat: 25.0330
  lon: 121.5654
  start: 2026-04-02
  end: 2026-04-02
  status: past
  url: "https://ncts.ntu.edu.tw/events_2_detail.php?nid=552"

- title: "61st Annual Meeting of the Taiwan Mathematical Society"
  type: conference
  institution: "National Chung Cheng University"
  city: "Chiayi, Taiwan"
  lat: 23.4801
  lon: 120.4491
  start: 2026-01-21
  end: 2026-01-22
  status: past
  url: "https://2026tms-en.tms.org.tw/"

- title: "Tour de Formosa"
  type: workshop
  note: "Co-supported by National Taiwan University and the National Science and Technology Council; travelled along Taiwan's east coast, first stop Hualien"
  city: "Hualien, Taiwan"
  lat: 23.9871
  lon: 121.6015
  start: 2026-01-12
  end: 2026-01-16
  status: past
  url: "https://sites.google.com/view/tour-de-formosa"

- title: "NCTS Minicourse on Gizatullin's problem"
  type: course
  institution: "National Center for Theoretical Sciences"
  note: "Lecturer: Keiji Oguiso"
  city: "Taipei, Taiwan"
  lat: 25.0330
  lon: 121.5654
  start: 2025-11-24
  end: 2025-12-01
  status: past
  url: "https://ncts.ntu.edu.tw/events_3_detail.php?nid=384"

- title: "2025 Algebraic Geometry in East Asia"
  type: conference
  institution: "National Cheng Kung University"
  city: "Tainan, Taiwan"
  lat: 22.9908
  lon: 120.2133
  start: 2025-11-10
  end: 2025-11-14
  status: past
  url: "https://sites.google.com/ncts.ntu.edu.tw/2025-algebraic-geometry-in/2025-agea"

- title: "Academic visit at Fudan University"
  type: visit
  institution: "Shanghai Center for Mathematical Sciences"
  note: "Hosted by Meng Chen"
  city: "Shanghai, China"
  lat: 31.2304
  lon: 121.4737
  start: 2025-09-28
  end: 2025-10-11
  status: past

- title: "2025 Summer Research Institute in Algebraic Geometry"
  type: summer-school
  institution: "Colorado State University"
  city: "Fort Collins, CO, USA"
  lat: 40.5853
  lon: -105.0844
  start: 2025-07-14
  end: 2025-08-01
  status: past
  url: "https://sites.google.com/view/2025summerinstitute/home"

- title: "NCTS Minicourse on Deformation Theory"
  type: course
  institution: "National Center for Theoretical Sciences"
  note: "Lecturer: Yujiro Kawamata"
  city: "Taipei, Taiwan"
  lat: 25.0330
  lon: 121.5654
  start: 2025-05-02
  end: 2025-05-09
  status: past
  url: "https://ncts.ntu.edu.tw/events_3_detail.php?nid=369"

- title: "Algebraic Geometry meets Machine Learning"
  type: conference
  institution: "National Cheng Kung University"
  city: "Tainan, Taiwan"
  lat: 22.9908
  lon: 120.2133
  start: 2025-04-27
  end: 2025-04-29
  status: past
  url: "https://sites.google.com/view/cjlai-ncku/conferenceworkshop/ag-meets-ml-ncku-2025-4"

- title: "Younger Generation of Algebraic Geometry 2025"
  type: workshop
  institution: "National Taiwan University / National Science and Technology Council"
  city: "Penghu, Taiwan"
  lat: 23.5711
  lon: 119.5793
  start: 2025-04-17
  end: 2025-04-19
  status: past
  url: "https://sites.google.com/view/laboratoryofbirationalgeometry/%E9%A6%96%E9%A0%81"

- title: "NCTS One-Day Workshop on Arithmetic and Algebraic Geometry"
  type: workshop
  institution: "National Taiwan University"
  city: "Taipei, Taiwan"
  lat: 25.0330
  lon: 121.5654
  start: 2025-02-20
  end: 2025-02-20
  status: past
  url: "https://ncts.ntu.edu.tw/events_2_detail.php?nid=492"

- title: "60th Annual Meeting of the Taiwan Mathematical Society"
  type: conference
  institution: "National Central University"
  city: "Taoyuan, Taiwan"
  lat: 24.9676
  lon: 121.1950
  start: 2025-01-14
  end: 2025-01-15
  status: past
  url: "https://2025tms.tms.org.tw/"

- title: "Intro. to Nevanlinna Theory, Hyperbolicity and Arithmetic Dynamics"
  type: workshop
  institution: "Academia Sinica"
  city: "Taipei, Taiwan"
  lat: 25.0330
  lon: 121.5654
  start: 2025-01-02
  end: 2025-01-03
  status: past
  url: "https://www.math.sinica.edu.tw/workshop/202501SCV/index.html"

- title: "Algebraic Geometry in Taipei"
  type: workshop
  institution: "National Taiwan University"
  city: "Taipei, Taiwan"
  lat: 25.0330
  lon: 121.5654
  start: 2024-12-02
  end: 2024-12-06
  status: past
  url: "https://sites.google.com/g.ntu.edu.tw/ag-Taipei/mpbg-2023"

- title: "Mini-Workshop: Young Perspectives in Algebraic Geometry"
  type: workshop
  institution: "National Taiwan University"
  city: "Taipei, Taiwan"
  lat: 25.0330
  lon: 121.5654
  start: 2024-11-25
  end: 2024-11-26
  status: past
  url: "https://sites.google.com/view/mini-workshop-young-perspectiv/%E9%A6%96%E9%A0%81"

- title: "Workshop in Hodge Theory"
  type: workshop
  institution: "National Taiwan University / National Science and Technology Council"
  city: "Xitou, Taiwan"
  lat: 23.6717
  lon: 120.7972
  start: 2024-08-21
  end: 2024-08-23
  status: past
  url: "https://sites.google.com/view/laboratoryofbirationalgeometry/%E9%A6%96%E9%A0%81"

- title: "9th European Congress of Mathematics"
  type: conference
  institution: "Universidad de Sevilla"
  city: "Seville, Spain"
  lat: 37.3891
  lon: -5.9845
  start: 2024-07-15
  end: 2024-07-19
  status: past
  url: "https://www.ecm2024sevilla.com/"

- title: "Transcendental aspects of algebraic geometry"
  type: workshop
  institution: "Grand Hotel San Michele"
  city: "Cetraro, Italy"
  lat: 39.5079
  lon: 16.0148
  start: 2024-07-01
  end: 2024-07-05
  status: past
  url: "https://www2.mathematik.hu-berlin.de/~klingleb/Cetraro24/main.html"

- title: "NCTS Minicourse on Non-Commutative Geometry"
  type: course
  institution: "National Center for Theoretical Sciences"
  note: "Lecturer: Yujiro Kawamata"
  city: "Taipei, Taiwan"
  lat: 25.0330
  lon: 121.5654
  start: 2024-04-17
  end: 2024-04-29
  status: past
  url: "https://ncts.ntu.edu.tw/events_3_detail.php?nid=334"

- title: "Mini-Arbeitsgemeinschaft 2024: Severi-Brauer varieties"
  type: workshop
  institution: "National Taiwan University / National Science and Technology Council"
  city: "Hualien, Taiwan"
  lat: 23.9871
  lon: 121.6015
  start: 2024-01-26
  end: 2024-01-29
  status: past
  url: "https://sites.google.com/view/laboratoryofbirationalgeometry/%E9%A6%96%E9%A0%81"

- title: "59th Annual Meeting of the Taiwan Mathematical Society"
  type: conference
  institution: "National Chengchi University"
  city: "Taipei, Taiwan"
  lat: 25.0330
  lon: 121.5654
  start: 2024-01-22
  end: 2024-01-23
  status: past
  url: "https://2024tms-en.tms.org.tw/"

- title: "NCTS-Kyoto Mathematics Symposium"
  type: seminar
  institution: "National Center for Theoretical Sciences"
  city: "Taipei, Taiwan"
  lat: 25.0330
  lon: 121.5654
  start: 2023-12-09
  end: 2023-12-09
  status: past
  url: "https://ncts.ntu.edu.tw/events_2_detail.php?nid=427"

- title: "Birational Geometry and Algebraic Dynamics"
  type: workshop
  institution: "University of Tokyo"
  city: "Tokyo, Japan"
  lat: 35.6762
  lon: 139.6503
  start: 2023-11-27
  end: 2023-12-01
  status: past
  url: "https://www.ms.u-tokyo.ac.jp/~stakagi/workshop/oguiso/index.html"

- title: "Algebraic Geometry in East Asia"
  type: conference
  institution: "Korea Institute For Advanced Study"
  city: "Seoul, South Korea"
  lat: 37.5665
  lon: 126.9780
  start: 2023-11-06
  end: 2023-11-10
  status: past
  url: "http://events.kias.re.kr/h/AGEA23/"

- title: "Geometric and Arithmetic Frontiers of Orbifolds II"
  type: workshop
  institution: "Institut de recherche mathématique avancée"
  city: "Strasbourg, France"
  lat: 48.5734
  lon: 7.7521
  start: 2023-06-05
  end: 2023-06-09
  status: past
  url: "https://cirget.uqam.ca/Orbifolds3/en"

- title: "Differential and Algebraic methods in Kähler spaces"
  type: workshop
  institution: "Mathematisches Forschungsinstitut Oberwolfach"
  city: "Oberwolfach, Germany"
  lat: 48.4383
  lon: 8.2536
  start: 2023-04-09
  end: 2023-04-14
  status: past
  url: "https://www.mfo.de/occasion/2315/www_view"

- title: "Crash Course Condensed Mathematics"
  type: course
  institution: "University of Freiburg"
  city: "Freiburg, Germany"
  lat: 47.9990
  lon: 7.8421
  start: 2023-03-13
  end: 2023-03-17
  status: past
  url: "https://math.commelin.net/2023/condensed"

- title: "Abschlusskolloquium of GK \"Cohomological Methods in Geometry\""
  type: seminar
  institution: "University of Freiburg"
  city: "Freiburg, Germany"
  lat: 47.9990
  lon: 7.8421
  start: 2022-07-14
  end: 2022-07-15
  status: past
  url: "https://www.gk1821.uni-freiburg.de/GK%20Colloquium"

- title: "Birational Geometry conference"
  type: conference
  institution: "École Polytechnique Fédérale de Lausanne"
  city: "Lausanne, Switzerland"
  lat: 46.5197
  lon: 6.6323
  start: 2022-06-13
  end: 2022-06-17
  status: past
  url: "https://www.epfl.ch/labs/cag/birational-geometry-conference"

- title: "Géométrie Algébrique en Liberté XXIX"
  type: conference
  institution: "Laboratoire de Mathématiques d'Orsay"
  city: "Orsay, France"
  lat: 48.6989
  lon: 2.1739
  start: 2022-05-23
  end: 2022-05-27
  status: past
  url: "https://lmv.math.cnrs.fr/geometrie-algebrique-en-liberte-gael-xxix/"

- title: "Workshop Higher Algebra"
  type: workshop
  institution: "Technical University of Darmstadt"
  city: "Darmstadt, Germany"
  lat: 49.8728
  lon: 8.6512
  start: 2022-03-16
  end: 2022-03-18
  status: past
  url: "https://crc326gaus.de/workshop-higher-algebra"

- title: "New Techniques in Resolution of Singularities"
  type: workshop
  institution: "Mathematisches Forschungsinstitut Oberwolfach"
  city: "Oberwolfach, Germany"
  lat: 48.4383
  lon: 8.2536
  start: 2021-10-24
  end: 2021-10-30
  status: past
  online: true
  url: "https://www.mfo.de/document/2143b/Poster-2043b.pdf"

- title: "K-theory, algebraic cycles and motivic homotopy theory"
  type: workshop
  institution: "Isaac Newton Institute for Mathematical Sciences"
  city: "Cambridge, UK"
  lat: 52.2053
  lon: 0.1218
  start: 2020-01-13
  end: 2020-01-17
  status: past
  url: "https://www.newton.ac.uk/event/kahw01"

- title: "o-Minimal Structures in Algebraic Geometry Summer School"
  type: summer-school
  institution: "University of Freiburg"
  city: "Freiburg, Germany"
  lat: 47.9990
  lon: 7.8421
  start: 2019-09-09
  end: 2019-09-13
  status: past
  url: "https://cplx.vm.uni-freiburg.de/omin/"

- title: "Moduli and Stability conditions Summer School"
  type: summer-school
  institution: "University of Hannover"
  city: "Hannover, Germany"
  lat: 52.3759
  lon: 9.7320
  start: 2019-07-29
  end: 2019-08-02
  status: past
  url: "https://sites.google.com/site/moduli2019hannover/home"

- title: "2nd BYMAT Conference"
  type: conference
  institution: "Instituto de Ciencias Matemáticas"
  city: "Madrid, Spain"
  lat: 40.4168
  lon: -3.7038
  start: 2019-05-20
  end: 2019-05-24
  status: past
  url: "https://www.icmat.es/congresos/2019/BYMAT/abstracts.pdf"

- title: "Geometry Summer School"
  type: summer-school
  institution: "Utrecht University"
  city: "Utrecht, Netherlands"
  lat: 52.0907
  lon: 5.1214
  start: 2017-08-14
  end: 2017-08-25
  status: past
  url: "https://www.utrechtsummerschool.nl/courses/science/geometry"

- title: "Partial Differential Equations Summer School"
  type: summer-school
  institution: "Fundação Calouste Gulbenkian"
  city: "Lisbon, Portugal"
  lat: 38.7223
  lon: -9.1393
  start: 2016-07-04
  end: 2016-07-08
  status: past
  url: "https://www.math.tecnico.ulisboa.pt/~ggranja/Talentos/school2016"

- title: "Dynamical Systems Summer School"
  type: summer-school
  institution: "Fundação Calouste Gulbenkian"
  city: "Lisbon, Portugal"
  lat: 38.7223
  lon: -9.1393
  start: 2015-07-06
  end: 2015-07-10
  status: past
  url: "https://www.math.tecnico.ulisboa.pt/~ggranja/Talentos/school2015"

- title: "Algebraic Geometry Summer School"
  type: summer-school
  institution: "Fundação Calouste Gulbenkian"
  city: "Lisbon, Portugal"
  lat: 38.7223
  lon: -9.1393
  start: 2014-07-14
  end: 2014-07-18
  status: past
  url: "https://www.math.tecnico.ulisboa.pt/~ggranja/Talentos/school2014"
